{
"type": "FeatureCollection",
"name": "ifd_minsap_csb_district_level_3_district",
"crs": { "type": "name", "properties": { "name": "urn:ogc:def:crs:OGC:1.3:CRS84" } },
"features": [
{ "type": "Feature", "properties": { "fid": 1.0, "name": "MAROHARATRA", "type": "CSB2", "lat": -20.732330002894301, "lon": 47.76887829 }, "geometry": { "type": "Point", "coordinates": [ 47.76887829970056, -20.732330002894301 ] } },
{ "type": "Feature", "properties": { "fid": 2.0, "name": "FASINTSARA", "type": "CSB2", "lat": -20.717319602898055, "lon": 47.69248269 }, "geometry": { "type": "Point", "coordinates": [ 47.692482699691688, -20.717319602898055 ] } },
{ "type": "Feature", "properties": { "fid": 3.0, "name": "AMPASINAMBO", "type": "CSB2", "lat": -20.609008702954657, "lon": 47.68677599 }, "geometry": { "type": "Point", "coordinates": [ 47.686775999684798, -20.609008702954657 ] } },
{ "type": "Feature", "properties": { "fid": 4.0, "name": "AMBALAVOLO", "type": "CSB1", "lat": -20.732854402897651, "lon": 47.83769869 }, "geometry": { "type": "Point", "coordinates": [ 47.837698699707808, -20.732854402897651 ] } },
{ "type": "Feature", "properties": { "fid": 5.0, "name": "MAROMANANA", "type": "CSB1", "lat": -20.887244702796728, "lon": 47.49051339 }, "geometry": { "type": "Point", "coordinates": [ 47.490513399681284, -20.887244702796728 ] } },
{ "type": "Feature", "properties": { "fid": 6.0, "name": "AMBODIMANGA NORD", "type": "CSB1", "lat": -20.765749202867767, "lon": 47.60685639 }, "geometry": { "type": "Point", "coordinates": [ 47.606856399685654, -20.765749202867767 ] } },
{ "type": "Feature", "properties": { "fid": 7.0, "name": "AMBODIARA SUD", "type": "CSB1", "lat": -20.780533102864418, "lon": 47.68691169 }, "geometry": { "type": "Point", "coordinates": [ 47.686911699694775, -20.780533102864414 ] } },
{ "type": "Feature", "properties": { "fid": 8.0, "name": "ANALAMPASINA", "type": "CSB2", "lat": -20.838045002826036, "lon": 47.54604939 }, "geometry": { "type": "Point", "coordinates": [ 47.546049399683824, -20.838045002826036 ] } },
{ "type": "Feature", "properties": { "fid": 9.0, "name": "MAHASOA", "type": "CSB1", "lat": -21.502275802482803, "lon": 47.78635519 }, "geometry": { "type": "Point", "coordinates": [ 47.786355199746048, -21.502275802482803 ] } },
{ "type": "Feature", "properties": { "fid": 10.0, "name": "MAROTOKO", "type": "CSB2", "lat": -21.59627200243024, "lon": 47.76253099 }, "geometry": { "type": "Point", "coordinates": [ 47.76253099974938, -21.59627200243024 ] } },
{ "type": "Feature", "properties": { "fid": 11.0, "name": "ANTARETRA", "type": "CSB2", "lat": -21.355948502561748, "lon": 47.77799989 }, "geometry": { "type": "Point", "coordinates": [ 47.777999899736919, -21.355948502561748 ] } },
{ "type": "Feature", "properties": { "fid": 12.0, "name": "RANOMAFANA", "type": "CSB2", "lat": -21.258114202596335, "lon": 47.45508829 }, "geometry": { "type": "Point", "coordinates": [ 47.455088299701316, -21.258114202596335 ] } },
{ "type": "Feature", "properties": { "fid": 13.0, "name": "KELILALINA", "type": "CSB2", "lat": -21.287410002586313, "lon": 47.55358979 }, "geometry": { "type": "Point", "coordinates": [ 47.553589799712221, -21.287410002586313 ] } },
{ "type": "Feature", "properties": { "fid": 14.0, "name": "IFANADIANA", "type": "CSB2", "lat": -21.301463402583501, "lon": 47.63734939 }, "geometry": { "type": "Point", "coordinates": [ 47.637349399720783, -21.301463402583501 ] } },
{ "type": "Feature", "properties": { "fid": 15.0, "name": "TSARATANANA", "type": "CSB2", "lat": -21.177443702650265, "lon": 47.63722949 }, "geometry": { "type": "Point", "coordinates": [ 47.637229499713321, -21.177443702650265 ] } },
{ "type": "Feature", "properties": { "fid": 16.0, "name": "ANTSINDRA", "type": "CSB2", "lat": -20.987318402757374, "lon": 47.73516259 }, "geometry": { "type": "Point", "coordinates": [ 47.735162599711657, -20.987318402757374 ] } },
{ "type": "Feature", "properties": { "fid": 17.0, "name": "AMBOHIMIERA", "type": "CSB2", "lat": -21.057681702707129, "lon": 47.51008409 }, "geometry": { "type": "Point", "coordinates": [ 47.510084099693827, -21.057681702707129 ] } },
{ "type": "Feature", "properties": { "fid": 18.0, "name": "AMBOHIMANGA DU SUD", "type": "CSB2", "lat": -20.877272902807974, "lon": 47.59296679 }, "geometry": { "type": "Point", "coordinates": [ 47.592966799690934, -20.87727290280797 ] } },
{ "type": "Feature", "properties": { "fid": 19.0, "name": "AMBIABE", "type": "CSB2", "lat": -21.394531602531021, "lon": 47.59948519 }, "geometry": { "type": "Point", "coordinates": [ 47.59948519972297, -21.394531602531021 ] } },
{ "type": "Feature", "properties": { "fid": 20.0, "name": "ANDRORANGAVOLA", "type": "CSB2", "lat": -21.503105902478577, "lon": 47.71712609 }, "geometry": { "type": "Point", "coordinates": [ 47.717126099739971, -21.503105902478577 ] } },
{ "type": "Feature", "properties": { "fid": 21.0, "name": "ANALAMARINA", "type": "CSB1", "lat": -21.045116402721828, "lon": 47.64950239 }, "geometry": { "type": "Point", "coordinates": [ 47.649502399706599, -21.045116402721828 ] } }
]
}
